Latitude,Longitude,Location Name,Type,Level
17.335756,77.907491,Vikarabad,Area Hospital,4
17.25493,77.5859803,Tandur,District Hospital,4
17.265904,77.619613,Tandur,PP Unit,4
17.178704,77.881032,Pargi,Community Health Centre,3
17.109586,77.624014,Kodangal,Community Health Centre,3
17.539171,77.764847,Marpally,Community Health Centre,3
17.579466,77.796496,Patloor,PHC,2
17.517518,77.896492,Mominpet,PHC,2
17.427463,77.962284,Nawabpet,PHC,2
17.358712,77.991936,Siddaloor,PHC,2
17.255146,78.024649,Chengomul,PHC,2
17.2652832,77.9574019,Pudur,PHC,2
17.0157717,77.8758775,Kulkacherla,PHC,2
17.090412,77.836544,Doma,PHC,2
17.1244898,77.9682749,Chityal,PHC,2
17.303668,77.775383,Dharur,PHC,2
17.352184,77.723696,Nagasamander,PHC,2
17.4413519,77.7074837,Bantwaram,PHC,2
17.2132321,77.6435705,Yalal,PHC,2
17.3363137,77.6587352,Peddemul,PHC,2
17.384471,77.745344,Kotepally,PHC,2
17.086221,77.536656,Angadi Raichur,PHC,2
17.160565,77.739749,Bomraspet,PHC,2
17.220143,77.423865,Basheerabad,PHC,2
17.220143,77.423865,Navalga,PHC,2
17.009963,77.561473,Doulthabad,PHC,2
17.346473,77.544191,Gingurthy,PHC,2
17.093,77.6355,KODANGAL-1,AWC,1
17.1069,77.6244,KODANGAL-2,AWC,1
17.1038,77.6295,KODANGAL-3,AWC,1
17.0924,77.6362,KODANGAL-4,AWC,1
17.1171,77.6494,KODANGAL-5,AWC,1
17.112,77.6255,KODANGAL-6,AWC,1
17.1044,77.6323,KODANGAL-7,AWC,1
17.1069,77.6244,KODANGAL-8,AWC,1
17.1042,77.6219,KODANGAL-9,AWC,1
17.0924,77.6362,KODANGAL-10,AWC,1
17.1409,77.6054,KODANGAL-11,AWC,1
17.1069,77.6244,KODANGAL-12,AWC,1
17.095,77.6023,CHITLAPALLY-1,AWC,1
16.9873407,77.7109058,CHITLAPALLY-2,AWC,1
17.0957,77.6029,KHAJAAHMEDPALLY,AWC,1
17.102713,77.5975805,POSHAMMA TANDA,AWC,1
17.101,77.6156,KONDAREDDYPALLY,AWC,1
17.0957,77.6029,BULKA POOR,AWC,1
17.093739,77.5814639,INNANPALLY,AWC,1
17.0715,77.5929,CHINNA NANDIGAMA,AWC,1
17.08533,77.6391148,BURUJKHANPALLY,AWC,1
17.1104918,77.6218177,RAWALAPALLY-I,AWC,1
17.0472,77.5223,RAWALAPALLY-II,AWC,1
17.0559,77.4976,RAWALAPALLY-III,AWC,1
17.0472,77.5223,RAWALAPALLY-IV,AWC,1
17.0592,77.5083,INDANOOR-1,AWC,1
17.059,77.5082,INDANOOR-II,AWC,1
17.059,77.4961,KASTOORPALLY-1,AWC,1
17.0602,77.4921,KASTOORPALLY-II,AWC,1
17.1409,77.6054,UDMESHWARAM,AWC,1
17.1042,77.6219,ERRANPALLY-I,AWC,1
17.1502,77.5947,ERRANPALLY-II,AWC,1
17.0556,77.6522,HUSNABAD-1,AWC,1
17.0739,77.6814,HUSNABAD-2,AWC,1
17.0566,77.6546,HUSNABAD-3,AWC,1
17.0512,77.6503,HUSNABAD-4,AWC,1
17.051,77.6483,HUSNABAD-5,AWC,1
17.039,77.6468,ALID,AWC,1
17.0924,77.6362,PARSAPUR-1,AWC,1
17.1,77.6314,PARSAPUR-II,AWC,1
17.0843,77.6854,Gopya Thanda,AWC,1
17.0738,77.6815,PALGURALLA TANDA,AWC,1
17.0842,77.6822,YEKACHERU TANADA,AWC,1
17.0863,77.6517,PATTA KODANGAL,AWC,1
17.0936,77.6631,PATTA KODANGAL TANDA,AWC,1
17.0562,77.604,PEDDANANDIGAMA-I,AWC,1
17.0566,77.6076,PEDDANANDIGAMA-II,AWC,1
17.0807,77.633,GUNDLAKUNTA ,AWC,1
17.0957,77.6029,PIYALAMADDI,AWC,1
17.0693,77.6189,HUSSAINPUR,AWC,1
17.1328,77.5114,RUDRARAM-1,AWC,1
17.1353,77.5109,RUDRARAM-2,AWC,1
17.1349,77.5116,RUDRARAM-3,AWC,1
17.1333,77.5102,RUDRARAM-4,AWC,1
17.1354,77.511,RUDRARAM-5,AWC,1
17.1348,77.5093,RUDRARAM-6,AWC,1
17.1132,77.4789,BHAVANAMMA (T),AWC,1
17.1082,77.4663,BHEEMALI (T),AWC,1
17.1594,77.493,PATIMIDIPALLY,AWC,1
17.1040783,77.5202,UPPERPALLY,AWC,1
17.1426,77.5311,NASARAM,AWC,1
17.0582,77.4951,ANNARAM-I,AWC,1
17.0562,77.5434,ANNARAM-II,AWC,1
17.0576,77.4969,TEKULCODE-I,AWC,1
17.0595,77.4972,TEKULCODE-II,AWC,1
17.0576,77.4969,TEKULCODE (T),AWC,1
17.1019,77.4672,BOYAPALLY TANDA,AWC,1
17.0943,77.6016,LAXMIPALLY,AWC,1
17.0957,77.6029,SANSAIPALLY,AWC,1
17.0627,77.5499,ANGADIRAICHUR-I,AWC,1
17.0598,77.5488,ANGADIRAICHUR-II,AWC,1
17.0919,77.539,ANGADIRAICHUR-III,AWC,1
17.0598,77.5488,ANGADIRAICHUR-IV,AWC,1
17.0582,77.4951,DHARMAPUR,AWC,1
17.1592,77.7369,BOMRASPET -1,AWC,1
17.168,77.7404,BOMRASPET -1I,AWC,1
17.1708,77.7416,BOMRASPET -1II,AWC,1
17.1652,77.7393,BOMRASPET -1V,AWC,1
17.1669,77.7381,GAJULAKUNTA TANDA,AWC,1
17.1507,77.7459,METLAKUNTA - I,AWC,1
17.1579,77.785,METLAKUNTA - II,AWC,1
17.1507,77.7459,LUTKUNTA TANDA,AWC,1
17.1792,77.7771,MAISHAMMAGADDA TANDA,AWC,1
17.1507,77.7459,BHUJANNAGADDA (T),AWC,1
17.1507,77.7459,BURRAI TANADA,AWC,1
17.1579,77.785,DEPPLANAIK TANDA,AWC,1
17.1792,77.7771,Gubbadi Thanda,AWC,1
17.1767,77.7815,Buranpur - 1,AWC,1
17.1897281,77.7618374,Buranpur - 2,AWC,1
17.1235,77.6688,SURIYA NAIK TANDA,AWC,1
17.1863,77.7491,Thettakunta Thanda,AWC,1
17.2086,77.7629,NARSIYA NAIK TANDA,AWC,1
17.1546,77.7294,GIDDIGANI TANDA,AWC,1
17.2193343,77.7711345,MADANPALLY ,AWC,1
17.2109,77.7646,MADANPALLY TANDA,AWC,1
17.1668,77.7381,SALIMDAPUR,AWC,1
17.1624,77.756,Malakunta Thanda,AWC,1
17.1685,77.7664,TEKULAGADDATANDA,AWC,1
17.1392,77.6974,MAHANTIPUR,AWC,1
17.1104656,77.6217154,JANAKAMPALLY,AWC,1
17.1458,77.7284,DUPCHERLLA,AWC,1
17.1194,77.7375,NAMDARPUR-I,AWC,1
17.1194,77.7376,NAMDARPUR-II,AWC,1
17.1018,77.6507,MEDUHITTU TANDA,AWC,1
17.1007,77.7399,BORABANDA TANDA,AWC,1
17.1503,77.7333,TUNKIMETLA-I,AWC,1
17.1482,77.7328,TUNKIMETLA-II,AWC,1
17.1406083,77.7063964,BUTLONI TANDA,AWC,1
17.0551,77.6792,DUDUIYAL-I,AWC,1
17.0551,77.6792,DUDUIYAL-II,AWC,1
17.0551,77.6792,DUDUIYAL-III,AWC,1
17.0269,77.6799,DUDUIYAL-IV,AWC,1
17.0248,77.6824,DUDUIYAL-V,AWC,1
17.0248,77.6824,DUDUIYAL-VI,AWC,1
17.0248,77.6824,ALIKHANPALLY,AWC,1
17.0944,77.7439,ERRUPUMALLA -I,AWC,1
17.1151,77.7587,ERRUPUMALLA -II,AWC,1
17.1272,77.7646,KAKARLAGANDI TANDA,AWC,1
17.1456,77.7239,CHOWDERPALLY-I,AWC,1
17.1417,77.7094,CHOWDERPALLY-II,AWC,1
17.0944,77.744,BAPALLYTANDA,AWC,1
17.1034,77.7612,PALABAI TANDA,AWC,1
17.1168,77.7601,SHEETA NAIK TANDA,AWC,1
17.0641,77.7375,ERLAPALLY-1,AWC,1
17.0641,77.7375,YELLAGADDA TANDA,AWC,1
17.0757,77.7375,SATTURKUNTA TANDA,AWC,1
17.0545,77.7339,Nanya Nayak Thanda,AWC,1
17.0916,77.7279,GOUWRARAM-1,AWC,1
17.0915,77.728,GOUWRARAM-1I,AWC,1
17.0939,77.7115,SAGARAM TANDA,AWC,1
17.051,77.7241,LAGACHERLLA-I,AWC,1
17.0532,77.7307,LAGACHERLLA-II,AWC,1
17.0577,77.7339,LAGACHERLLA TANDA,AWC,1
17.1213,77.6669,REGADIMAILARAM-1,AWC,1
17.124,77.6669,REGADIMAILARAM-1I,AWC,1
17.1177,77.6652,MUDOMAMILA TANDA,AWC,1
17.1177,77.6652,B.K. NAIK TANA,AWC,1
17.1219,77.6681,BAMACHERU TANDA,AWC,1
17.1406,77.7071,NAGAREDDYPALLY,AWC,1
17.1517,77.692,KUTHUR-I,AWC,1
17.1517,77.6921,KUTHUR-II,AWC,1
17.1397,77.6985,RAMNAIK TANDA,AWC,1
17.1489,77.7406,KATTUKALVA TANDA,AWC,1
17.1651,77.6815,LINGA NAIK TANDA,AWC,1
17.1788,77.6012,VADCHERLLA-1,AWC,1
17.1788,77.6012,VADCHERLLA-1I,AWC,1
17.1701,77.6154,URUVENKI TANDA,AWC,1
17.1762,77.6724,EMMMIDI TANDA,AWC,1
17.2496862,77.6394728,YENKAIPALLY-I,AWC,1
17.1514,77.6332,YENKAIPALLY-II,AWC,1
17.1134,77.6663,CHILMULMAILARAM-I,AWC,1
17.0967,77.6819,CHILMULMAILARAM-II,AWC,1
17.0967,77.6819,CHITTUPALLI TAND,AWC,1
17.0969286,77.6819856,SATUKUNTA TANDA,AWC,1
17.0966,77.6977,PULLIBAI TANDA,AWC,1
17.0869,77.7072,MUCHUKUNTANDA,AWC,1
17.0967,77.6819,EKKACHERUTANDA,AWC,1
17.1065,77.7095,AMSANPALLY,AWC,1
17.1018,77.6505,NAGZKHANPALLY,AWC,1
17.1184,77.7016,LINGANPALLY,AWC,1
17.0079,77.5633,DOULTABAD-I,AWC,1
17.008,77.5633,DOULTABAD-II,AWC,1
17.0076,77.5663,DOULTABAD-III,AWC,1
17.0098,77.5651,DOULTABAD-IV,AWC,1
17.0064,77.5651,DOULTABAD-V,AWC,1
17.0071,77.5676,DOULTABAD-VI,AWC,1
16.9804,77.5803,RamankuntaTanda,AWC,1
16.9766,77.5688,RAIYALAGATTU TANDA,AWC,1
16.9576,77.573,GOKAFASLABAD-I,AWC,1
16.956,77.5715,GOKAFASLABAD-II,AWC,1
16.959,77.5738,GOKAFASLABAD-III,AWC,1
16.9365,77.5687,PULKAMPALLY,AWC,1
16.9184,77.5776,Sevabanda Thanda,AWC,1
16.9318,77.5662,KISTANAIK TANDA,AWC,1
16.9411,77.5801,WALKI TANDA,AWC,1
16.9184,77.5509,NAGASAGAR,AWC,1
16.9177,77.5505,TIMMLAPUR,AWC,1
16.9184,77.5306,HANMINAIK TANDA(Mini),AWC,1
16.9186,77.576,DEVARFASLABAD - I,AWC,1
16.9186,77.5775,DEVARFASLABAD - II,AWC,1
16.9186,77.5776,DEVARFASLABAD - III,AWC,1
16.9247,77.5916,Lottigutta Thanda,AWC,1
16.9187,77.5761,BHAGYA NAIK TANDA,AWC,1
16.9354,77.5779,NANDINAIK TANAD,AWC,1
16.9573,77.5201,BALLAMPET-I,AWC,1
16.9574,77.5201,BALLAMPET-II,AWC,1
16.9378,77.5298,SULTANAPUR,AWC,1
16.9568,77.5513,TEMMAREDDYPALLY,AWC,1
16.9569,77.5514,TEMMAREDDYPALLY-II,AWC,1
16.9794,77.5526,BANDIWADA TANDA,AWC,1
16.9576,77.5731,CHELLAPUR-I,AWC,1
16.9767,77.613,CHELLAPUR-II,AWC,1
16.9768,77.6135,ERLAPALLY-2,AWC,1
17.0865,77.5486,CHANDRAKAL,AWC,1
17.0400639,77.5108821,CHANDRAKAL-II,AWC,1
17.0277,77.5204,Dasarigudem,AWC,1
17.0277,77.5205,KUPPAGIRI,AWC,1
17.0425,77.5416,MATOOR-I,AWC,1
17.0424,77.5416,MATOOR-II,AWC,1
17.0515,77.5709,NETTOR-I,AWC,1
17.0508,77.5692,NETTOR-II,AWC,1
17.0318,77.5742,NARSAPOOR,AWC,1
17.0318,77.5742,KOWDEED,AWC,1
17.0263,77.5911,NANDARAM,AWC,1
16.9886,77.4996,BICHYAL-I,AWC,1
16.9885,77.4996,BICHYAL-II,AWC,1
17.0083,77.5193,Bichal Thanda,AWC,1
17.0253,77.6348,KUDURMALLA,AWC,1
17.0253,77.6348,KUDURMALLA-II,AWC,1
17.0455,77.6003,Sangaipally,AWC,1
17.0343,77.6101,Sangaipally Thanda,AWC,1
17.0206,77.6032,EMDAPUR,AWC,1
16.9728,77.6515,Uragunta ,AWC,1
17.0511,77.6613,Uragunta Thanda,AWC,1
17.0196,77.5953,YAMKI,AWC,1
17.0135,77.585,DASTAIALLY,AWC,1
16.9576,77.5731,SURAIPALLY-1,AWC,1
17.0472671,77.6452004,SURAIPALLY-2,AWC,1
17.0143518,77.6287327,SALEEMPUR,AWC,1
16.9567,77.4813,ANTHWAR-1,AWC,1
16.9649,77.4948,ANTHWAR-2,AWC,1
16.9975,77.5429,Gumdal-I,AWC,1
16.9975,77.5429,Gumdal-II,AWC,1
16.9566,77.5217,GUNDIPALLY,AWC,1
16.9785,77.5331,ALLAPUR,AWC,1
16.9646,77.5194,TIMMIYAPALLY,AWC,1
17.1137,77.6183,Maisammagadda thanda (Mini),AWC,1
17.0425,77.5933,Peddanandhigama (Mini),AWC,1
17.0757,77.7378,Gattameedhi thanda (Mini),AWC,1
17.1535,77.7643,Pulzanaik thanda (Mini),AWC,1
17.0517,77.7303,Valyanaik thanda,AWC,1
17.1748,77.6829,Enimidhi thanda (Mini),AWC,1
16.9386904,77.5298754,Bangla Thanda(Mini),AWC,1
17.0147,77.6253,Immudapur (Mini),AWC,1
17.5155,77.8926,Mominpet - I,AWC,1
17.5192,77.8918,Mominpet - II,AWC,1
17.5227,77.8965,Mominpet - III,AWC,1
17.5234,77.8969,Mominpet - IV,AWC,1
17.5078998,77.8797805,Chandrayanpally,AWC,1
17.564,77.8937,Burgupally,AWC,1
17.522,77.9433,Tekulpally - I,AWC,1
17.522,77.9434,Tekulpally - II,AWC,1
17.4987,77.944,Enkathala - I,AWC,1
17.4970438,77.9397755,Enkathala - II,AWC,1
17.4977,77.9403,Enkathala - III,AWC,1
17.4961,77.9914,Chakrampally,AWC,1
17.4699,77.978,Deverapally,AWC,1
17.5523,77.9101,Rallagudpally,AWC,1
17.5493,77.9087,Mekavanampally,AWC,1
17.4667,78.0034,Cheemaldari,AWC,1
17.4087,77.6838,Rompally II,AWC,1
17.5622,77.8951,Amradikalan,AWC,1
17.5608,77.8712,Amradikurdu,AWC,1
17.5608,77.8712,Kolkunda(New),AWC,1
17.5659,77.8341,Narsapoor,AWC,1
17.4637,77.8894,Velchal - I,AWC,1
17.4895,77.8707,Morangapally - I,AWC,1
17.4895,77.8708,Morangapally - II,AWC,1
17.4713,77.8122,Izrachittempally,AWC,1
17.4827,77.8413,Kyasaram - I,AWC,1
17.4886,77.8562,Syedalipoor,AWC,1
17.5192,77.8918,Mominpet - V,AWC,1
17.5248,77.8435,Siripuram - I,AWC,1
17.5238,77.8451,Siripuram - II,AWC,1
17.5069,77.8408,Enkepally-1,AWC,1
17.4908,77.9024,Govindapoor,AWC,1
17.4728,77.9035,Ramnathgudpally,AWC,1
17.5833,77.7941,Patloor 4,AWC,1
17.5644,77.919,MekavanampallyTanda,AWC,1
17.4827,77.8413,Kyasaram - II,AWC,1
17.5105,77.8873,Durgamchervu - II,AWC,1
17.4951,77.9406,Enkathala - IV,AWC,1
17.4628362,77.8858529,Durgamchervu - I,AWC,1
17.4894,77.8394,Veerlapally,AWC,1
17.5559622,77.8521202,Kolkunda(Old),AWC,1
17.5572,77.8547,Ravulapally,AWC,1
17.5192,77.8918,Kaslabad,AWC,1
17.4081,77.7414,Kothapally,AWC,1
17.4054,77.7614,Rampoor - I,AWC,1
17.4213,77.7667,Enkepally,AWC,1
17.4299,77.754,Ennaram - I,AWC,1
17.4694,77.7929,Ravulapally - I,AWC,1
17.4753,77.7844,Thimmapoor,AWC,1
17.4747,77.7547,Peddapoor,AWC,1
17.4639,77.8036,Barwad - I,AWC,1
17.4496,77.7954,Barwad - II,AWC,1
17.4384,77.809,Mothkpally - I,AWC,1
17.438,77.8086,Nagsanpally,AWC,1
17.4214,77.7956,Karimpoor,AWC,1
17.4029,77.7847,Jinnaram,AWC,1
17.3974,77.7797,Kankanalpally,AWC,1
17.4051,77.8206,Beerol,AWC,1
17.5369,77.7709,Marpally - IV,AWC,1
17.5192,77.8918,Panchalingal - II,AWC,1
17.5832,77.798,Patloor - I,AWC,1
17.5873,77.7936,Patloor - II,AWC,1
17.5853,77.791,Patloor - III,AWC,1
17.5385,77.7697,Marpally - I,AWC,1
17.5766,77.7647,Marpally - II,AWC,1
17.5369,77.7709,Marpally - III,AWC,1
17.5418,77.805,Kothlapoor - I,AWC,1
17.539,77.7636,Kothlapoor - II,AWC,1
17.5167,77.7403,Kotmarpally - I,AWC,1
17.5148,77.7561,Kotmarpally - II,AWC,1
17.6085455,77.7845465,Ghanapoor,AWC,1
17.6227,77.7605,Zhamshedpoor,AWC,1
17.5723,77.8232,Thumalapally,AWC,1
17.5784,77.8591,Pilligundla,AWC,1
17.576,77.8544,Gundlamarpally,AWC,1
17.555,77.812,Panchalingal - I,AWC,1
17.622,77.8355,Komshetpally - I,AWC,1
17.6446,77.8222,Mogiligundkla,AWC,1
17.592,77.8213,Bilkal,AWC,1
17.5828,77.835,Dargulapally,AWC,1
17.442,77.7075,Bantaram - I,AWC,1
17.4421,77.7051,Bantaram - II,AWC,1
17.4228,77.7018,Edulapally,AWC,1
17.4568,77.741,Yacharam,AWC,1
17.4386,77.7381,Sulthanpoor,AWC,1
17.4593,77.7611,Malasomaram,AWC,1
17.5261,77.7418,Buchanpally - I,AWC,1
17.5248,77.7425,Buchanpally - III -1,AWC,1
17.5055,77.7107,Damasthapoor,AWC,1
17.4693,77.6543,Thurmamidi - I,AWC,1
17.4692,77.6542,Thurmamidi - II,AWC,1
17.4698,77.6518,Thurmamidi - III,AWC,1
17.4591,77.6722,Baswapoor,AWC,1
17.461,77.6356,Bopunaram - I,AWC,1
17.4837,77.9021,Mallareddyguda,AWC,1
17.4386,77.7382,Nurullapoor,AWC,1
17.4088,77.6839,Rompally,AWC,1
17.3931,77.7106,Salbathapoor - I,AWC,1
17.4752499,77.7282185,Kalkoda - I,AWC,1
17.475,77.7265,Kalkoda,AWC,1
17.5671,77.9204,RallagudpallyTanda,AWC,1
17.5516,77.9478,MakthaTanda,AWC,1
17.4563,77.8926,Velchal - II,AWC,1
17.5723,77.8232,NarsapoorTanda,AWC,1
17.6435,77.8161,Komshetpally - II,AWC,1
17.4871,77.7202,Shapoor,AWC,1
17.3931,77.7106,Madwapoor,AWC,1
17.3793,77.7761,Malshetpally,AWC,1
17.603,77.8498,Mallikarjunagiri,AWC,1
17.5249,77.8427,Siripuram - III,AWC,1
17.4774,77.7743,Ravulapally - II,AWC,1
17.5239,77.7412,Buchanpally - III -2,AWC,1
17.461696,77.7264299,Kalkoda - II,AWC,1
17.4753,77.7843,Kudgunta,AWC,1
17.4051,77.7614,Rampoor - II,AWC,1
17.4299,77.7541,Ennaram - II,AWC,1
17.4633,77.8004,Barwad - III,AWC,1
17.438,77.8086,Mothkpally - II,AWC,1
17.4481,77.7284,Bantaram - III,AWC,1
17.4705,77.6524,Thurmamidi - IV,AWC,1
17.4609,77.6356,Bopunaram - II,AWC,1
17.3925,77.6874,Mangraspally,AWC,1
17.3931,77.7106,Salbathapoor - II,AWC,1
17.5493,77.9087,Mekavanampally-ll (Mini),AWC,1
17.5227,77.8965,Kaslabad Tanda (Mini),AWC,1
17.5339,77.9325,Sudoduka Tanda (Mini),AWC,1
17.4817,77.8237,Pallegutta Tanda (Mini),AWC,1
17.5236,77.9416,Tekupally SC (Mini),AWC,1
17.4587,78.0107,Balreddyguda (Mini),AWC,1
17.5397,77.7722,Marpally Tanda (Mini),AWC,1
17.5663,77.7554,Kattepad Tanda (Mini),AWC,1
17.6215,77.8352,Rampur (Mini),AWC,1
17.5031,77.7441,Gurramgattu Tanda (Mini),AWC,1
17.5363,77.7208,Jajjigubbadi Tanda (Mini),AWC,1
17.5055,77.7106,Damasthapur Tanda (Mini),AWC,1
17.5405,77.7729,Kothpalur Sc (Mini),AWC,1
17.4251,77.6929,Nagaram Tanda (Mini),AWC,1
17.4268,77.8348,Nagusanpally Tanda (Mini),AWC,1
17.4696,77.7995,Barwad Tanda (Mini),AWC,1
17.4776,77.75,Madgul Tanda (Mini),AWC,1
17.1809,77.8777,Baharpet,AWC,1
17.1793,77.8807,Indira nagar,AWC,1
17.1733,77.8755,Premnagar,AWC,1
17.1733,77.8756,Boiwada,AWC,1
17.1744,77.8747,Munnurgeri,AWC,1
17.1733,77.8756,Telugugeri,AWC,1
17.1592,77.8733,Yerragaddapally,AWC,1
17.1688,77.865,Sulthannagar,AWC,1
17.2039,77.8909,Mallemoniguda,AWC,1
17.1886,77.9151,Nayamathnagar,AWC,1
17.1448,77.8707,Narayanapoor,AWC,1
17.1761,77.8824,Sulthanpoor,AWC,1
17.2274,77.8727,Naskal - I,AWC,1
17.2258,77.871,Naskal - II,AWC,1
17.2301,77.8601,Bharkathpally,AWC,1
17.18,77.8803,Rukkumpally,AWC,1
17.1968,77.8505,Chiguralpally,AWC,1
17.2101,77.8262,Lakhnapoor,AWC,1
17.1667,77.8189,Govindapoor,AWC,1
17.1442,77.8604,Mittakodur - I,AWC,1
17.2022,77.8116,Mittakodur - II,AWC,1
17.1535,77.8224,Rangampally I,AWC,1
17.1533,77.8225,Rangampally II,AWC,1
17.1653,77.8045,BhojyanaikTanda,AWC,1
17.1596,77.8293,SondepoorTanda,AWC,1
17.1357,77.9514,Rapole - I,AWC,1
17.1289,77.9329,Rapole - II,AWC,1
17.1255,77.9675,Chityal,AWC,1
17.1162,77.9785,Thondapally,AWC,1
17.1298,77.9799,Yabajiguda,AWC,1
17.1299,77.9208,Khudavanpoor,AWC,1
17.1291,77.9131,Jaffarpally,AWC,1
17.0941,77.9576,Syedpally,AWC,1
17.1086,77.9426,Ravulapally,AWC,1
17.1881,77.9448,Madharam - I,AWC,1
17.138,77.9508,Madharam - II,AWC,1
17.1881,77.9448,Basireddypally,AWC,1
17.1991,77.9338,Rangapoor,AWC,1
17.1638,77.9097,Kalapoor,AWC,1
17.1128,77.924,Raghavapoor,AWC,1
17.1812,77.8772,Syedmalkapoor,AWC,1
17.1935,77.9207,NazeerabadTanda,AWC,1
17.1697,77.8412,Roopkhanpet - I,AWC,1
17.1697,77.8412,Roopkhanpet - II,AWC,1
17.1507,77.7459,Gadsingapoor,AWC,1
17.2032,77.7875,Ibrahimpoor,AWC,1
17.2047,77.7727,RoopsinghTanda,AWC,1
17.1921,77.7866,MalkaipetTanda,AWC,1
17.0865,77.8344,Doma - I,AWC,1
17.0884,77.8361,Doma - II,AWC,1
17.0834,77.8327,Doma - III,AWC,1
17.0846,77.8417,Udhanraopally,AWC,1
17.0571,77.873,Mothkur - I,AWC,1
17.0607,77.851,Mothkur - II,AWC,1
17.0607,77.851,Chenchucolony,AWC,1
17.0693,77.8058,Inapoor - I,AWC,1
17.0599,77.8189,Inapoor - II,AWC,1
17.1771261,77.8803378,Mylaram,AWC,1
17.1089,77.8408,Thimmaipally,AWC,1
17.1288,77.8243,Pothireddypally,AWC,1
17.0904,77.854,Ootpally,AWC,1
17.1272,77.785,Bompally,AWC,1
17.1187,77.7883,PeddaTanda -1,AWC,1
17.1177,77.8881,Baspally,AWC,1
17.11344,77.9040682,Shivareddypally,AWC,1
17.114,77.9032,Dongenkapally,AWC,1
17.1104,77.826,Rakonda,AWC,1
17.114,77.9032,Gudur,AWC,1
17.1751025,77.8807786,Palepally,AWC,1
17.0685,77.8684,Dornalpally,AWC,1
17.1152,77.8718,Godgonpally,AWC,1
16.9947,77.7907,Dadapoor - I,AWC,1
17.0186,77.7947,Dadapoor - Ii,AWC,1
17.0188,77.7939,Kothapally,AWC,1
17.0737,77.7914,Dirsampally - I,AWC,1
17.089,77.7916,Dirsampally - II,AWC,1
17.1042,77.7956,IlabadTanda,AWC,1
17.134,77.7967,Kistapoor - I,AWC,1
17.1356,77.7977,Kistapoor - II,AWC,1
17.0187,77.7946,Gumdal,AWC,1
16.9948,77.7906,GumdalTanda,AWC,1
17.0395,77.7926,Mallepally,AWC,1
17.0771,77.7719,Kondaipally,AWC,1
17.1134,77.7917,Brhamanpally,AWC,1
17.0771,77.855,PeddaTanda -2,AWC,1
17.1023,77.7717,Ganjipally,AWC,1
17.1258,77.7786,Budlapoor,AWC,1
17.0849,77.7735,Badempally,AWC,1
17.0138,77.8749,Kulkacherla - I,AWC,1
17.0178,77.8694,Kulkacherla - II,AWC,1
17.0137,77.885,Chapalagudem,AWC,1
17.0135,77.8521,Bomreddypally,AWC,1
17.0295,77.8406,Bandavelikacherla - I,AWC,1
17.0295,77.8406,Bandavelikacherla - II,AWC,1
17.0565,77.9513,Adivivenkatapoor,AWC,1
17.1348949,77.9038654,Thirumalapoor - I,AWC,1
17.127801,77.8894248,Thirumalapoor - II,AWC,1
16.9944,77.9359,Ippaipally,AWC,1
16.9843,77.8861,DhansinghTanda,AWC,1
16.9444,77.9105,Ananthasagar,AWC,1
16.995,77.8274,Salveed - I,AWC,1
16.9948,77.8274,Salveed - II,AWC,1
16.9731,77.8528,DeeplanaikTanda,AWC,1
17.0044,77.8159,Chellapoor,AWC,1
16.9764,77.862,Antharam - I,AWC,1
16.9715,77.8674,Antharam - II,AWC,1
16.9813,77.8849,CheruvumundaliTanda,AWC,1
16.9571,77.8682,Puttapahad,AWC,1
16.9949,77.8486,Puttapahad SC,AWC,1
16.9966,77.8981,Mujahidpoor - I,AWC,1
17.0606,77.9107,Mujahidpoor - II,AWC,1
17.0727,77.9053,Ramreddypally,AWC,1
17.0867,77.925,Allapoor Tanda,AWC,1
17.0361,77.8713,Kamanpally,AWC,1
17.0409,77.9275,Lingampally,AWC,1
17.0484,77.9213,DasyanikTanda,AWC,1
17.0478,77.9259,Vallynaik Tanda L,AWC,1
17.0407,77.8747,Peerampally,AWC,1
17.0238,77.82,Ramnagar,AWC,1
17.0264,77.8244,BandavelikacherlaTanda,AWC,1
16.9959,77.8398,Ghanapoor,AWC,1
16.9989,77.9797,Chowdapoor - I,AWC,1
16.9989,77.9797,Chowdapoor - II,AWC,1
17.007,77.9752,Vittalapoor,AWC,1
16.9866,77.9758,ErlabadTanda,AWC,1
17.0716862,77.8676347,Kusumasamudram - I,AWC,1
16.9949,77.9029,Kusumasamudram - II,AWC,1
16.9753,77.928,Kusumasamudram - III,AWC,1
16.9695,77.9049,Kusumasamudram - IV,AWC,1
17.1602491,77.8924245,Mandipal,AWC,1
16.9742,77.9736,Makthavenkatapoor,AWC,1
17.0163533,77.8725613,Veerapoor,AWC,1
17.1762,77.7892,Heeryaniak  Tanda  (Mini),AWC,1
17.1613471,77.8022383,Gangyanaiak  Tanda  (Mini),AWC,1
17.1661,77.7828,Dadi Tanda  (Mini),AWC,1
17.1728,77.824,Govinda poor Tanda  (Mini),AWC,1
17.1633,77.8161,Jeedigadda  Tanda  (Mini),AWC,1
17.1812,77.8594,Kistammagadi  Tanda  (Mini),AWC,1
17.1613,77.8434,Suvali  Tanda   (Mini),AWC,1
17.1633,77.8161,Salipallybata Tanda  (Mini),AWC,1
17.2098,77.9259,Rangapoor  Tanda  (Mini),AWC,1
17.189,77.7881,Mannyanaik Tanda  (Mini),AWC,1
17.1441,77.8604,Ramreddy Pally  (Mini),AWC,1
17.1319,77.8474,Oot pally Tanda  (Mini),AWC,1
17.1035,77.7702,GanjiPally  (Mini),AWC,1
17.1722669,77.878067,Baddyanaik  Tanda  (Mini),AWC,1
17.0884,77.7657,Badem Pally Tanda  (Mini),AWC,1
17.0755,77.8717,Jangirsab Tanda  (Mini),AWC,1
17.1424,77.788,Pinjaram pallugu Tanda  (Mini),AWC,1
17.0133,77.8004,Dadapoor Tanda  (Mini),AWC,1
17.1272,77.785,Budlapoo Tanda  (Mini),AWC,1
17.0043,77.8159,Hanmyanaik Tanda  (Mini),AWC,1
17.1187,77.7882,Peerla Gutta Tanda (Mini),AWC,1
16.9929,77.8326,Gopyanaik Tanda  (Mini),AWC,1
17.0264,77.842,Bhojanaik Tanda CC (Mini),AWC,1
17.0108,77.9195,Lalsingh Tanda  (Mini),AWC,1
17.0073,77.9022,Bandameedi Tanda  (Mini),AWC,1
17.1768286,77.8810324,GandicheruvuTandaThirumala poor  (Mini),AWC,1
17.0615,77.9033,Pothigadda Tanda  (Mini),AWC,1
17.0213,77.8165,Suryanaik Tanda  (Mini),AWC,1
17.0616,77.9033,Manchikunta Tanda  (Mini),AWC,1
17.0431,77.8963,Patelcheruvu  Tanda  (Mini),AWC,1
17.033,77.9294,Chakalipally Tanda (Mini),AWC,1
17.0373,77.9308,Valyanaik Tanda  (Mini),AWC,1
17.0308,77.9316,Laxmammagadda Tanda (Mini),AWC,1
17.0204,77.9431,Sakriyanaik  Tanda  (Mini),AWC,1
17.0228,77.928,Balram Tanda  (Mini),AWC,1
16.9944,77.9371,GandicheruvuTanda  (Rampur)  (Mini),AWC,1
16.9736,77.9267,Gattannapally Tanda (Mini),AWC,1
16.8811,77.9798,Nagammagadda Tanda  (Mini),AWC,1
17.0199,77.9361,Bhajyanaik Tanda  (Mini),AWC,1
17.0154867,77.9287075,GogyanaikTanda(Ad. V. Poor)  (Mini),AWC,1
16.9928,77.8321,Gondiyanaik Tanda (Mini),AWC,1
16.9879,77.8696,Tekul Tanda  (Mini),AWC,1
16.9731,77.8528,Chinthalkunta Tanda  (Mini),AWC,1
17.0163,77.9299,Yerralachya Tanda  (Mini),AWC,1
16.9551,77.8967,Chinnaramaiah Tanda  (Mini),AWC,1
17.0123,77.8272,ErragovindTanda  (Mini),AWC,1
17.0527,77.882,BhojyaikTanda KP (Mini),AWC,1
16.9967,77.9443,Gubbali Tanda  (Mini),AWC,1
17.0141,77.9527,Haryanaik Tanda  (Mini),AWC,1
16.9775,77.9147,Allugadda Tanda  (Mini),AWC,1
17.0465,77.924,Ramsingh Tanda  (Mini),AWC,1
17.1635,77.8511,SulthanpoorTanda  (Mini),AWC,1
17.0526,77.882,BotyanaikTanda  (Mini),AWC,1
17.1451,77.8715,Laxmidevipally,AWC,1
17.1638,77.9536,Polkampally,AWC,1
17.138,77.9508,Narsaiahguda,AWC,1
17.1724,77.9036,NazeerabadpeddaTanda,AWC,1
17.0631,77.8682,HeerapoorTanda (Mini),AWC,1
17.1696,77.9092,KalapoorTanda (Mini),AWC,1
17.1993,77.9155,Maisammagadda Tanda (Mini),AWC,1
17.0774,77.8548,Kammanacharam,AWC,1
17.053,77.7917,Batlachandram,AWC,1
17.0572,77.8728,KeshilammaTanda (Mini),AWC,1
17.1749023,77.880557,MangalonichalkaTanda (Mini),AWC,1
17.114,77.9032,RathannaikTanda (Mini),AWC,1
17.114,77.9032,BantlakuntaTanda (Mini),AWC,1
17.1534351,77.7915138,Ananthareddypally (Mini),AWC,1
17.1447,77.7889,SammaiahgaddaTanda (Mini),AWC,1
17.0265,77.788,MallepallyTanda (Mini),AWC,1
17.115,77.7801,CherlaTanda (Mini),AWC,1
17.1042,77.7956,MettugaddaTanda (Mini),AWC,1
17.1751541,77.8807953,UshennaikTanda (Mini),AWC,1
17.1683695,77.8798367,Yellareddypally (Mini),AWC,1
17.014,77.8731,Kulkacherla - III,AWC,1
16.9813,77.8849,Bindemgadda Tanda (Mini),AWC,1
17.1637177,77.8860139,Bureddypally (Mini),AWC,1
17.0157,77.94,RajivnagarTanda (Mini),AWC,1
16.9764,77.862,YethukalvaTanda (Mini),AWC,1
16.996,77.8398,SubyanaikTanda (Mini),AWC,1
17.0633191,77.8672774,Hanmaipally (Mini),AWC,1
16.9952,77.8101,HeryanaikTanda (Mini),AWC,1
17.3642,77.4615,SANGAM KALAN I,AWC,1
17.3979,77.4632,SANGAM KALAN II,AWC,1
17.3488,77.5448,SANKIREDDY PALLY,AWC,1
17.3489,77.5965,S R PALLY TANDA,AWC,1
17.3428,77.5077,INALLI,AWC,1
17.349,77.5449,GINGURTHI I,AWC,1
17.346,77.5438,GINGURTHI II,AWC,1
17.3458,77.5004,MALKAPUR I,AWC,1
17.3458,77.5004,MALKAPUR II,AWC,1
17.3441,77.499,MALKAPUR III,AWC,1
17.2535966,77.5905633,KOTLAPUR-2,AWC,1
17.3431,77.5127,KOTABASPALLY I,AWC,1
17.3429,77.5123,KOTABASPALLY II,AWC,1
17.2871,77.5072,UDANDAPUR,AWC,1
17.2871,77.5072,G M TANDA,AWC,1
17.3547,77.5499,MAISAMA TANDA,AWC,1
17.2579,77.5597,CHENGASPUR,AWC,1
17.2571,77.5578,KONAPUR,AWC,1
17.2627,77.5372,Elmakanya,AWC,1
17.3104,77.4915,GUNTABAS PALLY,AWC,1
17.2961,77.4771,KARANKOTE I,AWC,1
17.3007,77.4735,KARANKOTE II,AWC,1
17.3016,77.4721,KARANKOTE III,AWC,1
17.3007,77.4735,KARANKOTE IV,AWC,1
17.3002,77.478,KARANKOTE V,AWC,1
17.2602,77.5821,GOWTHAPUR I,AWC,1
17.28,77.5691,GOWTHAPUR II,AWC,1
17.2952,77.571,CHANGOLE I,AWC,1
17.2953,77.571,CHANGOLE II,AWC,1
17.3099,77.5728,C M PATNAM,AWC,1
17.3211,77.573,PARVATHAPUR,AWC,1
17.2985,77.5153,BELKATUR I,AWC,1
17.284,77.5661,CHITTIGANAPUR,AWC,1
17.273,77.4897,CHANDRAVANCHA,AWC,1
17.3243,77.5452,ALLAHAPUR I,AWC,1
17.3023068,77.4714519,OGIPUR,AWC,1
17.2878,77.5502,VEERAREDDYPALLY,AWC,1
17.2729,77.5793,SIRGIRIPET I,AWC,1
17.2878,77.5502,RAMPUR,AWC,1
17.3084,77.5363,RAMPUR TANDA,AWC,1
17.312,77.5433,MITTABASPALLY,AWC,1
17.2579866,77.6333478,KHANJAPUR,AWC,1
17.2756,77.6003,ANTHARAM I,AWC,1
17.2756,77.6004,ANTHARAM II,AWC,1
17.2666375,77.5911341,DASTHAGIRIPET,AWC,1
17.2882,77.5903,ANTHARAM TANDA,AWC,1
17.2388,77.5333,NARAYANAPUR,AWC,1
17.227,77.545,GONUR,AWC,1
17.2325,77.5474,VERSATTIPALLY,AWC,1
17.2521,77.6567,BEGWAR,AWC,1
17.3369,77.6652,PEDDEMUL I,AWC,1
17.3419,77.6715,PEDDEMUL II,AWC,1
17.3457,77.6403,PEDDEMUL TANDA,AWC,1
17.3314,77.6527,BUDDARAM,AWC,1
17.3814256,77.6448425,GOPALPUR,AWC,1
17.3523,77.6565,THIMSANPALLY,AWC,1
17.3639,77.6326,RUDRAM,AWC,1
17.3521,77.6706,NARSAPUR,AWC,1
17.3844,77.6466,NAGULAPALLY I,AWC,1
17.3025,77.6813,MAREPALLY,AWC,1
17.3845,77.7361,ANNASAGER-1,AWC,1
17.3856,77.7425,KOTPALLY I,AWC,1
17.3828,77.7435,KOTPALLY II,AWC,1
17.3864,77.7428,BUGGAPUR,AWC,1
17.3748,77.6899,INDOL,AWC,1
17.3725,77.697,OGLAPUR,AWC,1
17.3275,77.6487,GAJIPUR I,AWC,1
17.2964,77.666,MUMBAPUR I,AWC,1
17.2942,77.6681,MUMBAPUR II,AWC,1
17.2837,77.638,KANDANELLI I,AWC,1
17.2837,77.638,RUKMAPUR,AWC,1
17.2589,77.6564,REGONDI,AWC,1
17.2959,77.6713,CHAITANYA NAGAR,AWC,1
17.2508191,77.740022,KONDAPUR,AWC,1
17.3109,77.6963,DUGAPUR,AWC,1
17.2956,77.7109,MANSANPALLY,AWC,1
17.2966,77.6459,MADDANATHAPUR,AWC,1
17.3146,77.7133,MAREPALLY TANDA,AWC,1
17.2837,77.638,KANDANELLY TANDA,AWC,1
17.336,77.6688,JANAGAM I,AWC,1
17.3406,77.6724,JANAGAM II,AWC,1
17.2889711,77.6409047,KHANNAPUR,AWC,1
17.2592,77.587,GOTLAPALLY,AWC,1
17.3434,77.6383,INDUR I,AWC,1
17.3493,77.5957,INDUR II,AWC,1
17.3406,77.6724,JAYARAM TAND -1- T,AWC,1
17.3214,77.6315,GIRMAPUR,AWC,1
17.4093,77.6856,ATHKUR I,AWC,1
17.3571,77.6627,ATHKUR TANDA,AWC,1
17.4416104,77.6443728,BANDAMIDIPALLY -1,AWC,1
17.4384,77.6104,THATTIPALLY I,AWC,1
17.4384,77.6104,THATTIPALLY II,AWC,1
17.3442,77.6652,SIDANAMADUGU TANDA,AWC,1
17.4539,77.58,OMLANAIK TANDA,AWC,1
17.4507503,77.5922085,JAYARAM TANDA -2 - R,AWC,1
17.4356,77.6111,RACHAKATA TANDA,AWC,1
17.4373,77.5692,PASHAPUR,AWC,1
17.4373,77.5692,ADIKICHILA,AWC,1
17.421,77.5356,BAIMEDI TANDA,AWC,1
17.4157,77.5502,URINTI TANDA,AWC,1
17.2131,77.6427,YALAL I,AWC,1
17.2096,77.6412,YALAL II,AWC,1
17.2404,77.6557,VISWANATHPUR,AWC,1
17.1905,77.6636,GOREPALLY,AWC,1
17.192,77.6809,Devenaoor I,AWC,1
17.2112603,77.6283746,DUBALA TANDA,AWC,1
17.1945,77.6867,DEVLA TANDA,AWC,1
17.1938,77.6341,KISTAPUR,AWC,1
17.1938,77.6342,HAGIPUR,AWC,1
17.2219,77.6555,SAMGAM KURDU I,AWC,1
17.2898182,77.5614045,DAVLAPUR,AWC,1
17.1819,77.5926,GIRIJAPUR,AWC,1
17.1665,77.5621,BANDAMIDIPALLY -2,AWC,1
17.2544,77.5818,THIMAIPALLY,AWC,1
17.2548,77.5821,RENDLAGADDA TANDA,AWC,1
17.1665,77.5621,JUNTIPALLY I,AWC,1
17.1665,77.5621,JUNTIPALLY II,AWC,1
17.2016,77.5556,PAGIDIPALLY,AWC,1
17.2416,77.6003,KOKAT I,AWC,1
17.2504,77.6299,KOKAT II,AWC,1
17.2709,77.6122,BASHERMIYA TANDA,AWC,1
17.2404,77.6557,RAGAVAPUR,AWC,1
17.233,77.6763,KAMALPUR,AWC,1
17.2649,77.6784,ADALPUR,AWC,1
17.2551,77.6984,BANAPUR,AWC,1
17.2463,77.7352,RASNAM I,AWC,1
17.2454,77.7361,RASNAM II,AWC,1
17.2793,77.7156,SANGAIPALLY TANDA,AWC,1
17.2263441,77.7139094,PAGIDYAL I,AWC,1
17.2124,77.7185,PAGIDYAL II,AWC,1
17.2124,77.7185,BAGAIPALLY,AWC,1
17.1567,77.775,MUDAIPET I,AWC,1
17.2037175,77.682423,MUDAIPET II,AWC,1
17.1421,77.7078,SAGAIGUTTA TANDA,AWC,1
17.2012,77.7489,ACHUTHAPUR,AWC,1
17.2499,77.5918,LN PUR,AWC,1
17.2548,77.5821,AGANUR I,AWC,1
17.218,77.5922,AGANUR II,AWC,1
17.1993,77.6128,BENUR I,AWC,1
17.1993,77.6127,JAKEPALLY,AWC,1
17.2548,77.5821,MUKUNDAPUR,AWC,1
17.1819,77.5926,MUKUNDAPUR TANDA,AWC,1
17.1388292,77.6068912,CHENARAM,AWC,1
17.1905,77.552,YANKEPALLY,AWC,1
17.1956398,77.5463576,PERKAMPALLY,AWC,1
17.251509,77.5929248,Perkampally Tanda,AWC,1
17.1744,77.5765,Akkampally 1,AWC,1
17.2106,77.686,NAGASAMUNDAR I,AWC,1
17.2536387,77.5912855,NAGASAMUNDAR II,AWC,1
17.2294,77.6987,ANNASAGER-2,AWC,1
17.2156,77.4275,BASHEERABAD I,AWC,1
17.2139,77.4228,BASHEERABAD II,AWC,1
17.2192,77.4235,BASHEERABAD III,AWC,1
17.2199,77.4291,BASHEERABAD IV,AWC,1
17.173,77.3919,MANTHANGOUD,AWC,1
17.1459,77.4099,MAILWAR I,AWC,1
17.1461,77.4091,MAILWAR II,AWC,1
17.1473,77.3988,KAMSANPALLY -1,AWC,1
17.173,77.3887,EKMAY I,AWC,1
17.1706,77.393,EKAMY II,AWC,1
17.2283,77.415,NAVANGI,AWC,1
17.223,77.3972,INDERCHED,AWC,1
17.2871,77.5072,JEEVANGI I,AWC,1
17.2237,77.4572,JEEVANGI II,AWC,1
17.2644,77.4851,JEEVANGI III,AWC,1
17.2344,77.4286,GANGWAR,AWC,1
17.252,77.4339,KADGIRA I,AWC,1
17.1568,77.4296,KOTLAPUR-1,AWC,1
17.3687951,77.4442013,VALYANAIK TANDA,AWC,1
17.1809,77.4323,NADANAIK TANDA,AWC,1
17.2077,77.5165,KASIMPUR,AWC,1
17.1889,77.5134,BADLAPUR TANDA,AWC,1
17.2093,77.499,GOTIGA KURDU,AWC,1
17.187,77.4962,GOTIGA KALAN,AWC,1
17.2055,77.4752,NAVALGA I,AWC,1
17.2004,77.4805,BOGYANAIK TANDA,AWC,1
17.133,77.4721,NEELAPALLY,AWC,1
17.133,77.4721,JALALPOOR,AWC,1
17.1598,77.4577,PARVATHPALLY,AWC,1
17.1554,77.4658,MARPALLY,AWC,1
17.1230699,77.4585446,EASMILPUR,AWC,1
17.213,77.4567,MASANPALLY,AWC,1
17.2215,77.4443,KORVICHED,AWC,1
17.2182,77.453,KORVICHED GANI,AWC,1
17.2257,77.499,KAMSANPALLY -2,AWC,1
17.2504,77.5635,MANTHATI I,AWC,1
17.2271,77.5122,REDDYGANAPUR I,AWC,1
17.1835,77.436,DAMARCHED I,AWC,1
17.1885,77.4328,JAMLANAIK TANDA,AWC,1
17.2535,77.5900328,ALLAHPUR,AWC,1
17.1948,77.4618,BABUNAIK TANDA,AWC,1
17.2097,77.445,PARSANAIK TANDA,AWC,1
17.2016,77.5556,KOPANKOT TANDA,AWC,1
17.2109,77.5176,MALKANGIRI,AWC,1
17.353,77.5513,GINGURTHY TANDA,AWC,1
17.2985,77.5153,BELKATUR II,AWC,1
17.2729,77.5793,SIRIGIPET II,AWC,1
17.3236,77.6475,GAJIPUR II,AWC,1
17.4384,77.6104,THATTIPALLY TANDA,AWC,1
17.277,77.635,KANDANELLI II,AWC,1
17.3437,77.6119,HANMAPUR,AWC,1
17.1343,77.4172,MAILWAR TANDA,AWC,1
17.2168,77.4258,BASHEERABAD V,AWC,1
17.333,77.6554,Bandapally,AWC,1
17.1904,77.465,HANKYANAIK TANDA,AWC,1
17.2491,77.5802,MANIK NAGAR,AWC,1
17.248,77.5795,OPP HARIJAN WADA,AWC,1
17.2499,77.5792,HARIJAN WADA,AWC,1
17.2534,77.5765,SETARAMPET,AWC,1
17.2649,77.5875,BEGGER COLONY,AWC,1
17.2706,77.603,NTR NAGAR,AWC,1
17.2688,77.5982,INDERA NAGAR,AWC,1
17.256,77.5954,SWEEPER COLONY,AWC,1
17.2711,77.5768,Malreddypally I,AWC,1
17.2657,77.5886,Malreddypally II,AWC,1
17.2683,77.5862,Malreddypally III,AWC,1
17.2683,77.5981,Gundupeerlu I,AWC,1
17.2688,77.5982,Gundupeerlu II,AWC,1
17.2614,77.5897,Hamalibasthi I,AWC,1
17.2642,77.59,Hamalibasthi II,AWC,1
17.2631,77.5912,Hamalibasthi III,AWC,1
17.2632,77.5832,Gareebnagar I,AWC,1
17.2522,77.5841,Gareebnagar II,AWC,1
17.2592,77.5859,Saipur I,AWC,1
17.2592,77.5983,Saipur II,AWC,1
17.2547,77.5842,Saipur III,AWC,1
17.2525,77.5859,Kummargally I,AWC,1
17.2518,77.5905,Kummargally II,AWC,1
17.247,77.5803,Momingally I,AWC,1
17.248,77.5795,Momingally II,AWC,1
17.2493,77.5786,Momingally III,AWC,1
17.2471,77.5801,Gadi I,AWC,1
17.2353,77.5814,Gadi  II,AWC,1
17.2533,77.5765,Gandhinagar,AWC,1
17.2547,77.5876,Shamshirgunj,AWC,1
17.2565,77.5824,Veddergally I,AWC,1
17.2565,77.5824,Veddergally II,AWC,1
17.2571,77.5858,Dobigally I,AWC,1
17.2493,77.5786,Dobigally II (Old TDR),AWC,1
17.247,77.5803,Kasabgally,AWC,1
17.2553,77.5844,Putangalli,AWC,1
17.256,77.5789,Gumasthanagar,AWC,1
17.2649,77.6101,Rajivgruphakalpa,AWC,1
17.3243,77.5452,ALLAPUR II,AWC,1
17.3441,77.499,MALKAPUR IV,AWC,1
17.3494,77.5448,GINGURTHI III,AWC,1
17.3001,77.4781,KARANKOTE VI,AWC,1
17.2972,77.6471,Kandnelly III,AWC,1
17.3828,77.7435,Kotapally III,AWC,1
17.333,77.6554,Peddemul III,AWC,1
17.3406,77.6724,JANAGAM-III,AWC,1
17.3843,77.6466,NAGULAPALLY II,AWC,1
17.3946,77.7548,Lingampalli,AWC,1
17.214,77.644,Yalal III,AWC,1
17.2196,77.6446,Govindraopet,AWC,1
17.2104,77.608,BENUR II,AWC,1
17.2162,77.6267,SANGAM KURDU II,AWC,1
17.1728488,77.5764494,Akkampally 2,AWC,1
17.1917,77.6813,Devenaoor II,AWC,1
17.1665,77.5621,JUNTUPALLY III,AWC,1
17.1836,77.4358,DAMARCHED II,AWC,1
17.2541167,77.5911814,EKMAY III,AWC,1
17.2056,77.4754,NAVALGA II,AWC,1
17.2292,77.4976,MANTHATI II,AWC,1
17.2527,77.4364,KADGIRA II,AWC,1
17.2271,77.5121,REDDYGANAPUR II,AWC,1
17.1929,77.5095,Badlapur,AWC,1
17.3019,77.5345,Rampur Tanda (Mini),AWC,1
17.2781,77.6473,Malreddypalli (Mini),AWC,1
17.2878,77.5502,Gopanpalli (Mini),AWC,1
17.2803,77.6945,Nelligadda Tanda (Mini),AWC,1
17.3146,77.7133,Erragadda Tanda (Mini),AWC,1
17.1939,77.5191,Kasimpur Tanda (Mini),AWC,1
17.2529,77.7284,Ganga Sagar (Mini),AWC,1
17.2101772,77.7106896,Tuperlagadda Tanda (Mini),AWC,1
17.3372239,77.5939992,Ushanaik Tanda (Mini),AWC,1
17.3417,77.5904,Dharunivagu Tanda (Mini),AWC,1
17.3489,77.5965,Ontimamidi Tanda (Mini),AWC,1
17.4369,77.5692,Ramsingh Tanda (Mini),AWC,1
17.2104,77.608,Ambeerpet (Mini),AWC,1
17.2588,77.615,Bamlanaik Tanda (Mini),AWC,1
17.1267,77.4693,Neelapalli Tanda (Mini),AWC,1
17.2097,77.4449,Thouriyanaik Tanda (Mini),AWC,1
17.1974,77.4082,Manthangoud (Mini),AWC,1
17.2878,77.5502,Gowthapur Polish Unit (Mini),AWC,1
17.2181,77.4529,Korviched (Mini),AWC,1
17.2632,77.6176,Indiramma Colony (Mini),AWC,1
17.353,77.9045,Alampally -I,AWC,1
17.3496,77.9058,Alampally -II,AWC,1
17.3394,77.9043,Gangaram -I,AWC,1
17.3314,77.9069,Gangaram -II,AWC,1
17.3384,77.8872,Ramaiahguda,AWC,1
17.3422,77.8857,Ananthagiripally -I,AWC,1
17.3424,77.8837,Ananthagiripally -II,AWC,1
17.3112,77.9462,Kotherpally,AWC,1
17.3328,77.929,Shivareddypet,AWC,1
17.3298,77.9192,Ennepally -I,AWC,1
17.33,77.9195,Ennepally -II,AWC,1
17.3711,77.9042,Kothagadi -I,AWC,1
17.3714,77.9056,Kothagadi -II,AWC,1
17.3159,77.8729,Kompally,AWC,1
17.3080327,77.9633358,Athwelly,AWC,1
17.3898,77.8644,Madanapally I,AWC,1
17.3183,77.8685,Peelaram,AWC,1
17.3715,77.9046,Girigetpally,AWC,1
17.3828,77.9178,Narayanpur,AWC,1
17.3823,77.8115,M D Pally -I,AWC,1
17.3812,77.8142,M D Pally -I I,AWC,1
17.3895,77.9418,Pendlimadgu,AWC,1
17.3549,78.0042,Sidduloor-I,AWC,1
17.3549,78.0042,Sidduloor-II,AWC,1
17.3672,77.9427,Kotalaguda,AWC,1
17.3545,77.97,Peerampally,AWC,1
17.3673,77.9423,Kamareddyguda,AWC,1
17.3545,77.97,Pulusumamidi,AWC,1
17.332,77.9545,Buranpally,AWC,1
17.3658,77.9522,Pathoor,AWC,1
17.3616,77.9429,Dhannaram,AWC,1
17.3375075,77.8983539,Pulmaddi -I,AWC,1
17.3375075,77.8983539,Pulmaddi -II,AWC,1
17.3561,77.883,Erravally,AWC,1
17.2957,77.8844,Burgupally,AWC,1
17.3127,77.9151,Gudupally,AWC,1
17.2751,77.8959,M C Pally -I,AWC,1
17.2747,77.8985,M C Pally -II,AWC,1
17.2546,77.8653,Gottimukula,AWC,1
17.2457,77.8497,Dycharam,AWC,1
17.3129,77.9173,Venkatapur tanda,AWC,1
17.3112,77.914,Maddulgadda tanda,AWC,1
17.3431,77.8772,Laxminagar tanda,AWC,1
17.3221,77.9503,Buranpally tanda,AWC,1
17.4257,77.9614,Nawabpet,AWC,1
17.4277,77.9609,Yetraspally,AWC,1
17.3943,77.9567,Chittigadda -I,AWC,1
17.4255,77.9613,Chittagadda-II,AWC,1
17.3887,77.9925,Gollaguda,AWC,1
17.4515,78.0035,Madireddypally -I,AWC,1
17.4515,78.0034,Madreddypally-II,AWC,1
17.4093,78.0347,Gangada-I,AWC,1
17.4093,78.0348,Gangada-II,AWC,1
17.4385,78.037,Yellakonda -I,AWC,1
17.4384,78.037,Yellakonda -II,AWC,1
17.4266096,78.0206174,Lingampally,AWC,1
17.3577366,77.9083537,Dathapur,AWC,1
17.4157,77.989,Pulmamidi -I,AWC,1
17.4112,77.9924,Pulmamid -II,AWC,1
17.4225,78.0595,Gubbadipathapoor,AWC,1
17.4677,78.0374,Maithabkhanguda,AWC,1
17.3577366,77.9083537,Vattimeenapally,AWC,1
17.4329,78.0608,Mubarakpur,AWC,1
17.4443,77.9186,Madharam,AWC,1
17.3892,77.961,Chinchalpet -I,AWC,1
17.3923,77.9636,Chinchalpet -II,AWC,1
17.3345995,77.9035155,Aknapur,AWC,1
17.4003,77.9868,Athapur,AWC,1
17.4034,77.9194,Ekmamidi -I,AWC,1
17.4037,77.9115,Ekmamidi -II,AWC,1
17.3988,77.899,Mamdhanpally,AWC,1
17.4199,77.9327,Nagireddypally,AWC,1
17.404,77.9188,Thimmareddypally,AWC,1
17.4075,77.9483,Keshavapally,AWC,1
17.4105,77.932,Keshavapally tanda,AWC,1
17.4282,77.9051,Kummariguda,AWC,1
17.3994,78.0188,Poolapally,AWC,1
17.3854,77.9252,Mulamada,AWC,1
17.3434715,77.9052027,Gatewanampally,AWC,1
17.4283,77.9049,Arkathala,AWC,1
17.47,77.8854,Meenapally kalan,AWC,1
17.3350932,77.9051612,Kedicherla,AWC,1
17.6266203,78.0721465,Yavapur,AWC,1
17.3993,78.0191,Naraguda,AWC,1
17.3107,77.7809,Dharoor -I,AWC,1
17.3083,77.7792,Dharoor -II,AWC,1
17.2892,77.7568,Dharoor station,AWC,1
17.3051,77.7725,L N Tanda,AWC,1
17.3072,77.7657,D K Tanda,AWC,1
17.2816,77.7639,Dornal,AWC,1
17.2796,77.7525,Dornal tanda,AWC,1
17.2467,77.7568,Ampally,AWC,1
17.253,77.7582,Gurudotla,AWC,1
17.2467,77.7568,Sherigadda tanda,AWC,1
17.3107,77.7808,Kumaripally,AWC,1
17.2682,77.775,Nagaram,AWC,1
17.2628,77.7782,Nagaram tanda,AWC,1
17.2677,77.7953,Mylaram,AWC,1
17.2834,77.8043,Rajapur,AWC,1
17.3107,77.7808,Mominkalan,AWC,1
17.3435,77.7841,Kukinda,AWC,1
17.3477,77.8203,Kondapur kalan,AWC,1
17.3133,77.7804,Gaddamidi Gangaram,AWC,1
17.3133,77.7803,Narsapur,AWC,1
17.3303,77.7592,Rudraram,AWC,1
17.3212,77.7461,Gattepally,AWC,1
17.3153,77.7482,Gattepally tanda,AWC,1
17.3107,77.7808,Rampur tanda,AWC,1
17.3519,77.7223,Nagasamunder -I,AWC,1
17.3498,77.7241,Nagasamunder -II,AWC,1
17.3408,77.7122,Allapur,AWC,1
17.3134,77.7797,Kerelly -I,AWC,1
17.3107,77.8309,Kerelly -II,AWC,1
17.3011,77.8334,Kondapur kurdu,AWC,1
17.3068,77.8479,Bacharam,AWC,1
17.3107,77.7808,Allipur,AWC,1
17.3011,77.7959,Haridaspally,AWC,1
17.2909,77.7876,Chintakunta,AWC,1
17.3122,77.8159,Ebbanoor,AWC,1
17.2976,77.8672,Godumguda,AWC,1
17.2873,77.8542,Jaidupally,AWC,1
17.2718,77.8476,Sarpanpally,AWC,1
17.2489,77.8458,Nagasunpally,AWC,1
17.3351519,77.9025548,Antharam,AWC,1
17.2703,77.8181,Tarigopula,AWC,1
17.3632,77.8258,R C Pally,AWC,1
17.3105,77.7808,Munnurusomaram,AWC,1
17.3477,77.8203,Kycharam,AWC,1
17.3132,77.7796,Ouspally,AWC,1
17.2957,77.8454,Mominkurdu,AWC,1
17.34944,77.8143914,Dharmapur,AWC,1
17.279,77.7895,Mailaram kotha tanda,AWC,1
17.2479,77.7525,P C M Tanda,AWC,1
17.3336,77.7743,Thimmanagar,AWC,1
17.2677,77.7955,Mailram mundati tanda,AWC,1
17.2669,77.9622,Pudur -I,AWC,1
17.2702,77.9599,Pudur -II,AWC,1
17.2673,77.9573,Pudur -III,AWC,1
17.2488,77.9615,Chinnabandal tanda,AWC,1
17.2323,78.0103,Medikonda,AWC,1
17.2728,77.9863,Cheelapur,AWC,1
17.2396,77.9557,Rakemcherla,AWC,1
17.2377,77.9421,Thirmalapur Thanda,AWC,1
17.2259,77.9331,Somanagurthi -I,AWC,1
17.2258,77.9334,Somanagurthi -II,AWC,1
17.2252,77.9497,Devinoniguda,AWC,1
17.2234,77.9499,Keravelly,AWC,1
17.207,77.9636,Serigaipally,AWC,1
17.2219,77.983,Peddamunthal -I,AWC,1
17.3929483,78.4253732,Peddamunthal -II,AWC,1
17.2221,77.983,Peddamunthal -III,AWC,1
17.1981,78.0048,Kankal -I,AWC,1
17.2114,78.0163,Kankal -II,AWC,1
17.1878,78.024,Pudugurthy,AWC,1
17.1789,77.9963,Manchanpally -I,AWC,1
17.1793,77.9699,Manchanpally -II,AWC,1
17.2817,78.0248,Gattupally,AWC,1
17.1606,78.0006,Nizampetmedipally,AWC,1
17.1754,78.019,Chinthala pally,AWC,1
17.1419,77.9973,Thurkenikpally,AWC,1
17.2574,78.0258,Changomul -I,AWC,1
17.2591,78.0261,Changomul -II,AWC,1
17.2879,78.0295,A C Pally -I,AWC,1
17.2879,78.0295,A C Pally -II,AWC,1
17.2642,78.0178,Ragadimamidipaly,AWC,1
17.2755,78.0274,Pothireddyguda,AWC,1
17.2564,78.0265,Mittakankal,AWC,1
17.2323,78.0103,Qutubullapur,AWC,1
17.2642,78.0178,Kadmoor,AWC,1
17.2472,78.0097,Medipally kalan,AWC,1
17.2926,78.0233,Kandlapally -I,AWC,1
17.2926,78.0232,Kandlapally -II,AWC,1
17.2841,78.0163,Bakapur,AWC,1
17.2574,78.0258,Thimmapur,AWC,1
17.2982,77.9822,Manneguda,AWC,1
17.2963,77.9734,Gagnuaplly,AWC,1
17.2963,77.9734,Gangupally tanda,AWC,1
17.3112,77.974,Enkepally,AWC,1
17.3059,77.9684,Chanchuypally,AWC,1
17.2642,78.0178,Kothapally,AWC,1
17.2999,77.9975,Mirjapur,AWC,1
17.327,77.929,Shiva Reddypet II,AWC,1
17.3314,77.9069,Gangaram III,AWC,1
17.3417,77.8885,Rajeev Nagar Colony,AWC,1
17.3384,77.8872,Ambethekar Nagar Colony,AWC,1
17.3395,77.8971,Indira Nagar,AWC,1
17.3395,77.9077,Subash Nagar,AWC,1
17.3385,77.9004,Shivaram Nagar Colony,AWC,1
17.3385,77.8876,Riksha colony,AWC,1
17.3531,77.9044,Venkteshwara Colony,AWC,1
17.3356,77.8991,Gareeb Nagar Colony,AWC,1
17.353,77.9045,Alampally III,AWC,1
17.3712,77.9041,Kothagadi III,AWC,1
17.4454196,77.7042498,Jambapurthanda,AWC,1
17.3090232,78.1430813,Rajiv Gruhakalpa,AWC,1
17.3898,77.8644,Madanapally II,AWC,1
17.2546,77.8654,gottimukalla II,AWC,1
17.3616,77.9429,Dhannaram III,AWC,1
17.3545,77.9986,Kotalaguda II,AWC,1
17.3547,77.97,Pulsumamidi II,AWC,1
17.3081,77.775,Dharur III,AWC,1
17.2957,77.8454,Mominkalan II,AWC,1
17.3498,77.7242,Nagasamundar III,AWC,1
17.271,77.8179,Tarigoupula II,AWC,1
17.3105,77.7808,Munurusomaram II,AWC,1
17.3107,77.7808,Alipur,AWC,1
17.411,77.9924,Pulmamidi III,AWC,1
17.4102,77.9292,Ekamamidi III,AWC,1
17.3355925,77.902885,Gatevanampally II,AWC,1
17.4563,77.8933,Menapally Kalan,AWC,1
17.2017,78.0072,Kankal,AWC,1
17.2472,78.0097,Medipally Kalan-II,AWC,1
17.2573,78.0263,Chengomulu,AWC,1
17.2211,78.0334,Kadmur,AWC,1
17.3267,77.8646,Kottamguttatanda (Mini),AWC,1
17.2750527,78.1341725,Chechupally (Mini),AWC,1
17.2508,77.9089,Tekulabeeduthanda (Mini),AWC,1
17.3439,77.9248,Sreeramnagar Tanda (Mini),AWC,1
17.2957,77.8843,Burugupally tanda (Mini),AWC,1
17.3134,78.0286,Lalsingtanda (Mini),AWC,1
17.3134,77.7796,Kerelly (Mini),AWC,1
17.3107,77.7808,Kukinda (Mini),AWC,1
17.2467,77.7568,Gurudotlaurentanda (Mini),AWC,1
17.2616083,77.7797157,Bojanayaktanda (Mini),AWC,1
17.2467,77.7568,Jeedigadathanda (Mini),AWC,1
17.2854,77.9585,Maisamagadda (Mini),AWC,1
17.3189725,78.1209861,Matuguda (Mini),AWC,1
17.2931,77.9948,Dandugadtanda (Mini),AWC,1
17.2564,78.0265,Barlapally (Mini),AWC,1
17.3577366,77.9083537,Ramanguda (Mini),AWC,1
17.2768,77.8368,Inapur (Mini),AWC,1
17.3557,77.9028,Chencupally (Mini),AWC,1
17.1938,77.9312,Mariyapur (Mini),AWC,1
